[
  { "lat": 52.0768, "lng": 4.3125, "label": "Den Haag — Grote Markt / Hema" },
  { "lat": 52.0754, "lng": 4.3108, "label": "Den Haag — Spuistraat shops" },
  { "lat": 52.0749, "lng": 4.3178, "label": "Den Haag — Kalvermarkt retail" },
  { "lat": 52.0732, "lng": 4.3085, "label": "Den Haag — Venestraat" },
  { "lat": 52.0775, "lng": 4.3075, "label": "Den Haag — Noordeinde galleries" },
  { "lat": 52.0788, "lng": 4.3142, "label": "Den Haag — Buitenhof / Plein" },
  { "lat": 52.0715, "lng": 4.3225, "label": "Den Haag — HS / Stationsbuurt retail" },
  { "lat": 52.0698, "lng": 4.3155, "label": "Den Haag — Turfmarkt area" },
  { "lat": 52.0802, "lng": 4.3188, "label": "Den Haag — Centrum east shops" },
  { "lat": 52.0725, "lng": 4.3045, "label": "Den Haag — Zoutmanstraat / west retail" }
]
