[
  { "lat": 40.758, "lng": -73.9855, "label": "Times Square, NYC" },
  { "lat": 48.8566, "lng": 2.3522, "label": "Paris, France" },
  { "lat": 35.6762, "lng": 139.6503, "label": "Tokyo, Japan" },
  { "lat": 51.5074, "lng": -0.1278, "label": "London, UK" },
  { "lat": -33.8688, "lng": 151.2093, "label": "Sydney, Australia" },
  { "lat": 37.7749, "lng": -122.4194, "label": "San Francisco, USA" },
  { "lat": -22.9068, "lng": -43.1729, "label": "Rio de Janeiro, Brazil" },
  { "lat": 52.52, "lng": 13.405, "label": "Berlin, Germany" },
  { "lat": 1.3521, "lng": 103.8198, "label": "Singapore" },
  { "lat": 41.0082, "lng": 28.9784, "label": "Istanbul, Turkey" },
  { "lat": 13.7563, "lng": 100.5018, "label": "Bangkok, Thailand" },
  { "lat": 64.1466, "lng": -21.9426, "label": "Reykjavik, Iceland" },
  { "lat": -34.6037, "lng": -58.3816, "label": "Buenos Aires, Argentina" },
  { "lat": 37.9838, "lng": 23.7275, "label": "Athens, Greece" },
  { "lat": 30.0444, "lng": 31.2357, "label": "Cairo, Egypt" },
  { "lat": 35.1796, "lng": 136.9066, "label": "Nagoya, Japan" },
  { "lat": 45.4642, "lng": 9.19, "label": "Milan, Italy" },
  { "lat": 59.3293, "lng": 18.0686, "label": "Stockholm, Sweden" },
  { "lat": 25.2048, "lng": 55.2708, "label": "Dubai, UAE" },
  { "lat": 43.6532, "lng": -79.3832, "label": "Toronto, Canada" },
  { "lat": 34.0522, "lng": -118.2437, "label": "Los Angeles, USA" },
  { "lat": 38.7223, "lng": -9.1393, "label": "Lisbon, Portugal" },
  { "lat": 50.0755, "lng": 14.4378, "label": "Prague, Czech Republic" },
  { "lat": 47.4979, "lng": 19.0402, "label": "Budapest, Hungary" },
  { "lat": -6.2088, "lng": 106.8456, "label": "Jakarta, Indonesia" },
  { "lat": 19.4326, "lng": -99.1332, "label": "Mexico City, Mexico" },
  { "lat": 36.7213, "lng": -4.4217, "label": "Malaga, Spain" },
  { "lat": 60.1699, "lng": 24.9384, "label": "Helsinki, Finland" },
  { "lat": -33.9249, "lng": 18.4241, "label": "Cape Town, South Africa" }
]
